stop_id,stop_code,stop_name,stop_desc,stop_lat,stop_lon,zone_id,stop_url,location_type,parent_station,stop_timezone,wheelchair_boarding
101,A-01,西馬込,,35.587050,139.706086,101,,0,,,
102,A-02,馬込,,35.596773,139.711884,102,,0,,,
103,A-03,中延,,35.605274,139.713645,103,,0,,,
104,A-04,戸越,,35.614421,139.716315,104,,0,,,
105,A-05,五反田,,35.626878,139.723965,105,,0,,,
106,A-06,高輪台,,35.631751,139.730384,106,,0,,,
107,A-07,泉岳寺,,35.638715,139.739993,107,,0,,,
108,A-08,三田,,35.646749,139.746877,108,,0,,,
109,A-09,大門,,35.65687,139.754679,109,,0,,,
110,A-10,新橋,,35.665386,139.759338,110,,0,,,
111,A-11,東銀座,,35.669915,139.76735,111,,0,,,
112,A-12,宝町,,35.675606,139.771966,112,,0,,,
113,A-13,日本橋,,35.681796,139.775814,113,,0,,,
114,A-14,人形町,,35.686345,139.782276,114,,0,,,
115,A-15,東日本橋,,35.692123,139.784886,115,,0,,,
116,A-16,浅草橋,,35.697494,139.786335,116,,0,,,
117,A-17,蔵前,,35.703128,139.790858,117,,0,,,
118,A-18,浅草,,35.708920,139.796542,118,,0,,,
119,A-19,本所吾妻橋,,35.708565,139.804397,119,,0,,,
120,A-20,押上,,35.710824,139.812993,120,,0,,,
201,I-01,目黒,,35.633635,139.715444,201,,0,,,
202,I-02,白金台,,35.637851,139.726007,202,,0,,,
203,I-03,白金高輪,,35.643283,139.734344,203,,0,,,
204,I-04,三田,,35.648650,139.748998,204,,0,,,
205,I-05,芝公園,,35.654186,139.749850,205,,0,,,
206,I-06,御成門,,35.660774,139.751366,206,,0,,,
207,I-07,内幸町,,35.669344,139.755330,207,,0,,,
208,I-08,日比谷,,35.676585,139.760274,208,,0,,,
209,I-09,大手町,,35.684093,139.762798,209,,0,,,
210,I-10,神保町,,35.695331,139.758213,210,,0,,,
211,I-11,水道橋,,35.70346,139.755147,211,,0,,,
212,I-12,春日,,35.709532,139.753287,212,,0,,,
213,I-13,白山,,35.721682,139.752134,213,,0,,,
214,I-14,千石,,35.727772,139.744984,214,,0,,,
215,I-15,巣鴨,,35.733793,139.738154,215,,0,,,
216,I-16,西巣鴨,,35.743568,139.728703,216,,0,,,
217,I-17,新板橋,,35.748772,139.719808,217,,0,,,
218,I-18,板橋区役所前,,35.751372,139.710120,218,,0,,,
219,I-19,板橋本町,,35.761309,139.705544,219,,0,,,
220,I-20,本蓮沼,,35.768566,139.702410,220,,0,,,
221,I-21,志村坂上,,35.776082,139.695097,221,,0,,,
222,I-22,志村三丁目,,35.777468,139.685751,222,,0,,,
223,I-23,蓮根,,35.784262,139.678947,223,,0,,,
224,I-24,西台,,35.787074,139.672867,224,,0,,,
225,I-25,高島平,,35.788908,139.661361,225,,0,,,
226,I-26,新高島平,,35.790289,139.654050,226,,0,,,
227,I-27,西高島平,,35.791965,139.645421,227,,0,,,
301,S-01,新宿,,35.688433,139.698418,301,,0,,,
302,S-02,新宿三丁目,,35.691016,139.706794,302,,0,,,
303,S-03,曙橋,,35.692402,139.722317,303,,0,,,
304,S-04,市ヶ谷,,35.691530,139.737588,304,,0,,,
305,S-05,九段下,,35.695546,139.751738,305,,0,,,
306,S-06,神保町,,35.695972,139.757981,306,,0,,,
307,S-07,小川町,,35.695005,139.766449,307,,0,,,
308,S-08,岩本町,,35.695607,139.775115,308,,0,,,
309,S-09,馬喰横山,,35.691930,139.783006,309,,0,,,
310,S-10,浜町,,35.688601,139.787725,310,,0,,,
311,S-11,森下,,35.687982,139.796623,311,,0,,,
312,S-12,菊川,,35.688399,139.806057,312,,0,,,
313,S-13,住吉,,35.689040,139.815723,313,,0,,,
314,S-14,西大島,,35.689391,139.826231,314,,0,,,
315,S-15,大島,,35.689752,139.834705,315,,0,,,
316,S-16,東大島,,35.689959,139.847255,316,,0,,,
317,S-17,船堀,,35.683760,139.863955,317,,0,,,
318,S-18,一之江,,35.685987,139.882586,318,,0,,,
319,S-19,瑞江,,35.69351,139.89770,319,,0,,,
320,S-20,篠崎,,35.706022,139.903796,320,,0,,,
321,S-21,本八幡,,35.722819,139.926613,321,,0,,,
402,E-01,新宿西口,,35.693367,139.699121,402,,0,,,
403,E-02,東新宿,,35.697957,139.707434,403,,0,,,
404,E-03,若松河田,,35.699188,139.718043,404,,0,,,
405,E-04,牛込柳町,,35.699501,139.725040,405,,0,,,
406,E-05,牛込神楽坂,,35.700911,139.735894,406,,0,,,
407,E-06,飯田橋,,35.702952,139.745257,407,,0,,,
408,E-07,春日,,35.708493,139.752487,408,,0,,,
409,E-08,本郷三丁目,,35.70751,139.760524,409,,0,,,
410,E-09,上野御徒町,,35.707949,139.773351,410,,0,,,
411,E-10,新御徒町,,35.707009,139.782166,411,,0,,,
412,E-11,蔵前,,35.705587,139.792244,412,,0,,,
413,E-12,両国,,35.696807,139.797469,413,,0,,,
414,E-13,森下,,35.687926,139.798251,414,,0,,,
415,E-14,清澄白河,,35.682355,139.798758,415,,0,,,
416,E-15,門前仲町,,35.672772,139.795124,416,,0,,,
417,E-16,月島,,35.663757,139.783912,417,,0,,,
418,E-17,勝どき,,35.658934,139.777138,418,,0,,,
419,E-18,築地市場,,35.664919,139.766929,419,,0,,,
420,E-19,汐留,,35.663193,139.760225,420,,0,,,
421,E-20,大門,,35.656671,139.755696,421,,0,,,
422,E-21,赤羽橋,,35.654985,139.743989,422,,0,,,
423,E-22,麻布十番,,35.656448,139.736330,423,,0,,,
424,E-23,六本木,,35.664106,139.731354,424,,0,,,
425,E-24,青山一丁目,,35.673067,139.723925,425,,0,,,
426,E-25,国立競技場,,35.679896,139.714667,426,,0,,,
427,E-26,代々木,,35.683505,139.701603,427,,0,,,
428,E-27,新宿,,35.688462,139.699019,428,,0,,,
429,E-28,都庁前,,35.690607,139.692677,429,,0,,,
430,E-29,西新宿五丁目,,35.689892,139.684545,430,,0,,,
431,E-30,中野坂上,,35.697887,139.682899,431,,0,,,
432,E-31,東中野,,35.707160,139.683112,432,,0,,,
433,E-32,中井,,35.713935,139.686296,433,,0,,,
434,E-33,落合南長崎,,35.723435,139.683389,434,,0,,,
435,E-34,新江古田,,35.732579,139.670498,435,,0,,,
436,E-35,練馬,,35.737411,139.654762,436,,0,,,
437,E-36,豊島園,,35.741711,139.649116,437,,0,,,
438,E-37,練馬春日町,,35.751410,139.640300,438,,0,,,
439,E-38,光が丘,,35.758527,139.628901,439,,0,,,
501,NT-01,日暮里,,35.728793,139.771121,501,,0,,,
502,NT-02,西日暮里,,35.733739,139.768169,502,,0,,,
503,NT-03,赤土小学校前,,35.742868,139.769025,503,,0,,,
504,NT-04,熊野前,,35.748513,139.769828,504,,0,,,
505,NT-05,足立小台,,35.754655,139.770376,505,,0,,,
506,NT-06,扇大橋,,35.763906,139.770798,506,,0,,,
507,NT-07,高野,,35.768351,139.770692,507,,0,,,
508,NT-08,江北,,35.773954,139.770290,508,,0,,,
509,NT-09,西新井大師西,,35.781510,139.770077,509,,0,,,
510,NT-10,谷在家,,35.788787,139.770036,510,,0,,,
511,NT-11,舎人公園,,35.796384,139.770159,511,,0,,,
512,NT-12,舎人,,35.805690,139.770069,512,,0,,,
513,NT-13,見沼代親水公園,,35.814541,139.770707,513,,0,,,
601,SA-01,三ノ輪橋,,35.732207,139.791509,600,,0,,,
602,SA-02,荒川一中前,,35.733768,139.788841,600,,0,,,
603,SA-03,荒川区役所前,,35.734913,139.786416,600,,0,,,
604,SA-04,荒川二丁目,,35.738573,139.784704,600,,0,,,
605,SA-05,荒川七丁目,,35.741923,139.784210,600,,0,,,
606,SA-06,町屋駅前,,35.742783,139.780891,600,,0,,,
607,SA-07,町屋二丁目,,35.743919,139.776416,600,,0,,,
608,SA-08,東尾久三丁目,,35.745626,139.773867,600,,0,,,
609,SA-09,熊野前,,35.748487,139.769859,600,,0,,,
610,SA-10,宮ノ前,,35.749811,139.766190,600,,0,,,
611,SA-11,小台,,35.750477,139.761739,600,,0,,,
612,SA-12,荒川遊園地前,,35.750646,139.757517,600,,0,,,
613,SA-13,荒川車庫前,,35.750865,139.752461,600,,0,,,
614,SA-14,梶原,,35.751070,139.747268,600,,0,,,
615,SA-15,栄町,,35.750865,139.742186,600,,0,,,
616,SA-16,王子駅前,,35.752982,139.738045,600,,0,,,
617,SA-17,飛鳥山,,35.750109,139.737333,600,,0,,,
618,SA-18,滝野川一丁目,,35.747283,139.735420,600,,0,,,
619,SA-19,西ヶ原四丁目,,35.744222,139.732665,600,,0,,,
620,SA-20,新庚申塚,,35.741070,139.730344,600,,0,,,
621,SA-21,庚申塚,,35.739504,139.729625,600,,0,,,
622,SA-22,巣鴨新田,,35.735682,139.727684,600,,0,,,
623,SA-23,大塚駅前,,35.731188,139.729098,600,,0,,,
624,SA-24,向原,,35.728775,139.724759,600,,0,,,
625,SA-25,東池袋四丁目,,35.725398,139.720404,600,,0,,,
626,SA-26,都電雑司ヶ谷,,35.724081,139.717835,600,,0,,,
627,SA-27,鬼子母神前,,35.720569,139.715160,600,,0,,,
628,SA-28,学習院下,,35.716347,139.712529,600,,0,,,
629,SA-29,面影橋,,35.713012,139.714199,600,,0,,,
630,SA-30,早稲田,,35.711760,139.719003,600,,0,,,
